[
  {
    "code": "01100",
    "name": "札幌市",
    "region": "石狩振興局",
    "coordinates": [
      141.354374,
      43.061972
    ],
    "wikipedia": "https://ja.wikipedia.org/wiki/%E6%9C%AD%E5%B9%8C%E5%B8%82",
    "abstract": "札幌市（さっぽろし）は、北海道の道央地方に位置し、石狩振興局に属する市。道庁所在地にして石狩振興局所在地でもあり、北海道の政治・経済・文化の中心地となっている。北海道最大の人口（約196万人）を有する政令指定都市である。"
  },
  {
    "code": "01202",
    "name": "函館市",
    "region": "渡島総合振興局",
    "coordinates": [
      140.729108,
      41.768712
    ],
    "wikipedia": "https://ja.wikipedia.org/wiki/%E5%87%BD%E9%A4%A8%E5%B8%82",
    "abstract": "函館市（はこだてし）は、北海道南部（道南地方）に位置し、渡島総合振興局に属する市。北海道南端の渡島半島南東部で天然の良港である函館港によって北海道と本州を結ぶ交通結節点、道南地域の中心都市として発展してきた。振興局所在地であり、札幌市・旭川市に次ぐ北海道第3位の人口（約25万人）を有する中核市である。"
  },
  {
    "code": "01203",
    "name": "小樽市",
    "region": "後志総合振興局",
    "coordinates": [
      140.99460538,
      43.19075267
    ],
    "wikipedia": "https://ja.wikipedia.org/wiki/%E5%B0%8F%E6%A8%BD%E5%B8%82",
    "abstract": "小樽市（おたるし）は、北海道中部（道央地方）に位置し、後志総合振興局に属する唯一の市。保健所政令市に指定されている。"
  },
  {
    "code": "01205",
    "name": "室蘭市",
    "region": "胆振総合振興局",
    "coordinates": [
      140.973784,
      42.315204
    ],
    "wikipedia": "https://ja.wikipedia.org/wiki/%E5%AE%A4%E8%98%AD%E5%B8%82",
    "abstract": "室蘭市（むろらんし）は、北海道中南部（道央地方）にある市。 胆振総合振興局の振興局所在地。計量特定市。"
  },
  {
    "code": "01331",
    "name": "松前町",
    "region": "渡島総合振興局",
    "coordinates": [
      140.110403,
      41.429981
    ],
    "wikipedia": "https://ja.wikipedia.org/wiki/%E6%9D%BE%E5%89%8D%E7%94%BA",
    "abstract": "松前町 \n* 松前町 (北海道) - 北海道 松前郡 松前町 （まつまえちょう） \n* 松前町 (愛媛県) - 愛媛県 伊予郡 松前町 （まさきちょう） \n* 松前町 (名古屋市) - 愛知県名古屋市西区松前町（まつまえちょう） \n* - 愛媛県 松山市 松前町 （まさきまち）このページは地名の曖昧さ回避のためのページです。一つの地名が2か所以上の場所に用いられている場合の水先案内のために、同じ地名を持つ場所を一覧にしてあります。お探しの場所に一番近い記事を選んでください。このページへリンクしているページを見つけたら、リンクを適切な項目に張り替えてください。"
  },
  {
    "code": "01371",
    "name": "せたな町",
    "region": "檜山振興局",
    "coordinates": [
      139.882999,
      42.417145
    ],
    "wikipedia": "https://ja.wikipedia.org/wiki/%E3%81%9B%E3%81%9F%E3%81%AA%E7%94%BA",
    "abstract": "せたな町（せたなちょう）は、北海道檜山振興局の久遠郡にある町。"
  },
  {
    "code": "01391",
    "name": "島牧村",
    "region": "後志総合振興局",
    "coordinates": [
      140.061454,
      42.700471
    ],
    "wikipedia": "https://ja.wikipedia.org/wiki/%E5%B3%B6%E7%89%A7%E6%9D%91",
    "abstract": "島牧村（しままきむら）は、北海道後志総合振興局管内の南部に位置する村である。島牧郡に属する。"
  },
  {
    "code": "01405",
    "name": "積丹町",
    "region": "後志総合振興局",
    "coordinates": [
      140.598001,
      43.29871
    ],
    "wikipedia": "https://ja.wikipedia.org/wiki/%E7%A9%8D%E4%B8%B9%E7%94%BA",
    "abstract": "積丹町（しゃこたんちょう）は北海道後志総合振興局管内にある積丹郡の町。積丹半島の先端部を占め、美国（びくに）、入舸（いりか）、余別（よべつ）などの漁港がある。漁業、林業、酪農を中心とした農業を行う。大正時代まではニシン漁で栄えた。神威岬（かむいみさき）など断崖絶壁の海岸はニセコ積丹小樽海岸国定公園（1963年7月24日に指定）の一角をなし、北海道で唯一の海域公園（旧称：海中公園）に指定されている。さらには北海道遺産である神威岬（2004年10月22日公表）がある。ソーラン節のふるさとでもある。 町名の由来は、アイヌ語で「シャク（夏）」と「コタン（村、或いは郷土）」の二語を合わせたもので、意味は「シャクコタン（夏・場所）」となる（積丹町の公式ホームページによる）。"
  },
  {
    "code": "01406",
    "name": "古平町",
    "region": "後志総合振興局",
    "coordinates": [
      140.639078,
      43.265353
    ],
    "wikipedia": "https://ja.wikipedia.org/wiki/%E5%8F%A4%E5%B9%B3%E7%94%BA",
    "abstract": "古平町（ふるびらちょう）は、北海道西部、積丹半島の北東側に位置する町。後志総合振興局に属し、一町で古平郡をなす。 町名はアイヌ語の フレピラhure-pira[赤い・崖]、フルピラhur-pira[丘・崖]など、由来については町内の地形に基づいた諸説がある。"
  },
  {
    "code": "01517",
    "name": "礼文町",
    "region": "宗谷総合振興局",
    "coordinates": [
      141.047717,
      45.303062
    ],
    "wikipedia": "https://ja.wikipedia.org/wiki/%E7%A4%BC%E6%96%87%E7%94%BA",
    "abstract": "礼文町（れぶんちょう）は、北海道北部、稚内市沿岸の西方約60kmの礼文島にある町。宗谷地方に属する。"
  },
  {
    "code": "01204",
    "name": "旭川市",
    "region": "上川総合振興局",
    "coordinates": [
      142.364798,
      43.770799
    ],
    "wikipedia": "https://ja.wikipedia.org/wiki/%E6%97%AD%E5%B7%9D%E5%B8%82",
    "abstract": "旭川市（あさひかわし）は、北海道北中部（道北地方）に位置し、上川総合振興局に属する市。上川盆地に広がっている。振興局所在地であり、札幌市に次ぐ北海道第2位の人口（約33万人）を有する中核市である。"
  },
  {
    "code": "01206",
    "name": "釧路市",
    "region": "釧路総合振興局",
    "coordinates": [
      144.38167,
      42.984856
    ],
    "wikipedia": "https://ja.wikipedia.org/wiki/%E9%87%A7%E8%B7%AF%E5%B8%82",
    "abstract": "釧路市（くしろし）は、北海道東部（道東地方）の太平洋沿岸にある市。釧路総合振興局の振興局所在地。"
  },
  {
    "code": "01207",
    "name": "帯広市",
    "region": "十勝総合振興局",
    "coordinates": [
      143.196195,
      42.924014
    ],
    "wikipedia": "https://ja.wikipedia.org/wiki/%E5%B8%AF%E5%BA%83%E5%B8%82",
    "abstract": "帯広市（おびひろし）は、北海道中東部（道東地方）にある市。十勝総合振興局の振興局所在地。計量特定市。"
  },
  {
    "code": "01208",
    "name": "北見市",
    "region": "オホーツク総合振興局",
    "coordinates": [
      143.894384,
      43.807823
    ],
    "wikipedia": "https://ja.wikipedia.org/wiki/%E5%8C%97%E8%A6%8B%E5%B8%82",
    "abstract": "北見市（きたみし）は、北海道東部に位置する市。オホーツク総合振興局の中核都市。オホーツク海沿岸から石北峠まで東西約110キロメートル (km) に広がっており、北海道（ただし、北方領土である択捉島などを除いた場合）で一番広い地方公共団体（日本国内では高山市、浜松市、日光市に続く4番目の広さ）である。"
  },
  {
    "code": "01209",
    "name": "夕張市",
    "region": "空知総合振興局",
    "coordinates": [
      141.974069,
      43.056814
    ],
    "wikipedia": "https://ja.wikipedia.org/wiki/%E5%A4%95%E5%BC%B5%E5%B8%82",
    "abstract": "夕張市（ゆうばりし）は、北海道中部の道央地方に位置し、空知総合振興局に所属する市。 夕張メロンの産地として知られる。北海道の中央部に位置し、かつては石狩炭田の中心都市として栄えたが、1990年（平成2年）までに全ての炭鉱が閉山した。その後、ヤミ起債が発覚し深刻な財政難となり、2007年（平成19年）3月6日をもって財政再生団体に指定された。"
  },
  {
    "code": "01210",
    "name": "岩見沢市",
    "region": "空知総合振興局",
    "coordinates": [
      141.775857,
      43.196169
    ],
    "wikipedia": "https://ja.wikipedia.org/wiki/%E5%B2%A9%E8%A6%8B%E6%B2%A2%E5%B8%82",
    "abstract": "岩見沢市（いわみざわし）は、北海道中部（道央地方）の市。空知総合振興局の振興局所在地。"
  },
  {
    "code": "01211",
    "name": "網走市",
    "region": "オホーツク総合振興局",
    "coordinates": [
      144.273422,
      44.020631
    ],
    "wikipedia": "https://ja.wikipedia.org/wiki/%E7%B6%B2%E8%B5%B0%E5%B8%82",
    "abstract": "網走市（あばしりし）は、北海道東部（道東地方）にある市。オホーツク総合振興局の振興局所在地。"
  },
  {
    "code": "01212",
    "name": "留萌市",
    "region": "留萌振興局",
    "coordinates": [
      141.637009,
      43.940987
    ],
    "wikipedia": "https://ja.wikipedia.org/wiki/%E7%95%99%E8%90%8C%E5%B8%82",
    "abstract": "留萌市（るもいし）は、北海道北部（道北地方）の市。留萌振興局の振興局所在地。"
  },
  {
    "code": "01213",
    "name": "苫小牧市",
    "region": "胆振総合振興局",
    "coordinates": [
      141.605503,
      42.634094
    ],
    "wikipedia": "https://ja.wikipedia.org/wiki/%E8%8B%AB%E5%B0%8F%E7%89%A7%E5%B8%82",
    "abstract": "苫小牧市（とまこまいし）は、北海道中南部（道央地方）の胆振総合振興局にある市。計量特定市。"
  },
  {
    "code": "01214",
    "name": "稚内市",
    "region": "宗谷総合振興局",
    "coordinates": [
      141.673082,
      45.415675
    ],
    "wikipedia": "https://ja.wikipedia.org/wiki/%E7%A8%9A%E5%86%85%E5%B8%82",
    "abstract": "稚内市（わっかないし）は、北海道北部（道北地方）にある市で、宗谷総合振興局の振興局所在地である。日本国内の最北端に位置しており、宗谷地方の行政・経済の中心地、ロシアサハリン州をはじめとする北方圏への玄関口になっている。"
  },
  {
    "code": "01215",
    "name": "美唄市",
    "region": "空知総合振興局",
    "coordinates": [
      141.853986,
      43.332951
    ],
    "wikipedia": "https://ja.wikipedia.org/wiki/%E7%BE%8E%E5%94%84%E5%B8%82",
    "abstract": "美唄市（びばいし）は、北海道中部（道央地方）に位置し、空知総合振興局に属する市。"
  },
  {
    "code": "01216",
    "name": "芦別市",
    "region": "空知総合振興局",
    "coordinates": [
      142.189552,
      43.51821
    ],
    "wikipedia": "https://ja.wikipedia.org/wiki/%E8%8A%A6%E5%88%A5%E5%B8%82",
    "abstract": "芦別市（あしべつし）は、北海道中部（道央地方）に位置し、空知総合振興局に属する市。"
  },
  {
    "code": "01217",
    "name": "江別市",
    "region": "石狩振興局",
    "coordinates": [
      141.536103,
      43.103666
    ],
    "wikipedia": "https://ja.wikipedia.org/wiki/%E6%B1%9F%E5%88%A5%E5%B8%82",
    "abstract": "江別市（えべつし）は、北海道中部（道央地方）にある石狩振興局の市。"
  },
  {
    "code": "01218",
    "name": "赤平市",
    "region": "空知総合振興局",
    "coordinates": [
      142.044223,
      43.558039
    ],
    "wikipedia": "https://ja.wikipedia.org/wiki/%E8%B5%A4%E5%B9%B3%E5%B8%82",
    "abstract": "赤平市（あかびらし）は、北海道中部（道央地方）に位置し、空知総合振興局に属する市。"
  },
  {
    "code": "01219",
    "name": "紋別市",
    "region": "オホーツク総合振興局",
    "coordinates": [
      143.354279,
      44.356332
    ],
    "wikipedia": "https://ja.wikipedia.org/wiki/%E7%B4%8B%E5%88%A5%E5%B8%82",
    "abstract": "紋別市（もんべつし）は、北海道北部（道北地方）に位置し、オホーツク総合振興局に属する市。"
  },
  {
    "code": "01220",
    "name": "士別市",
    "region": "上川総合振興局",
    "coordinates": [
      142.400182,
      44.178626
    ],
    "wikipedia": "https://ja.wikipedia.org/wiki/%E5%A3%AB%E5%88%A5%E5%B8%82",
    "abstract": "士別市（しべつし）は、北海道上川地方北部にある市。 道内の根室管内に同じ読みの標津町があるため、ラジオなどでは「サムライ士別」と呼ばれたり、「しべつし」と市を加えて区別する場合がある。"
  },
  {
    "code": "01221",
    "name": "名寄市",
    "region": "上川総合振興局",
    "coordinates": [
      142.463134,
      44.355924
    ],
    "wikipedia": "https://ja.wikipedia.org/wiki/%E5%90%8D%E5%AF%84%E5%B8%82",
    "abstract": "名寄市（なよろし）は、北海道北部（道北地方）に位置し、上川総合振興局に属する市である。"
  },
  {
    "code": "01222",
    "name": "三笠市",
    "region": "空知総合振興局",
    "coordinates": [
      141.875342,
      43.245622
    ],
    "wikipedia": "https://ja.wikipedia.org/wiki/%E4%B8%89%E7%AC%A0%E5%B8%82",
    "abstract": "三笠市（みかさし）は、北海道中部（道央地方）に位置し、空知総合振興局に属する市。"
  },
  {
    "code": "01223",
    "name": "根室市",
    "region": "根室振興局",
    "coordinates": [
      145.582903,
      43.330036
    ],
    "wikipedia": "https://ja.wikipedia.org/wiki/%E6%A0%B9%E5%AE%A4%E5%B8%82",
    "abstract": "根室市（ねむろし）は、北海道東部（道東地方）にある市。根室振興局の振興局所在地。また、北海道本島の最東端にあたる市である。"
  },
  {
    "code": "01224",
    "name": "千歳市",
    "region": "石狩振興局",
    "coordinates": [
      141.651139,
      42.821124
    ],
    "wikipedia": "https://ja.wikipedia.org/wiki/%E5%8D%83%E6%AD%B3%E5%B8%82",
    "abstract": "千歳市（ちとせし）は、北海道中部（道央地方）に位置し、石狩振興局に属する市。"
  },
  {
    "code": "01225",
    "name": "滝川市",
    "region": "空知総合振興局",
    "coordinates": [
      141.910371,
      43.557753
    ],
    "wikipedia": "https://ja.wikipedia.org/wiki/%E6%BB%9D%E5%B7%9D%E5%B8%82",
    "abstract": "滝川市（たきかわし）は、北海道中部（道央地方）に位置し、空知総合振興局に属する市。また、中空知地域の中心都市である。"
  },
  {
    "code": "01226",
    "name": "砂川市",
    "region": "空知総合振興局",
    "coordinates": [
      141.903465,
      43.494846
    ],
    "wikipedia": "https://ja.wikipedia.org/wiki/%E7%A0%82%E5%B7%9D%E5%B8%82",
    "abstract": "砂川市（すながわし）は、北海道中部（道央地方）に位置し、空知総合振興局管内に属する市。"
  },
  {
    "code": "01227",
    "name": "歌志内市",
    "region": "空知総合振興局",
    "coordinates": [
      142.035353,
      43.521682
    ],
    "wikipedia": "https://ja.wikipedia.org/wiki/%E6%AD%8C%E5%BF%97%E5%86%85%E5%B8%82",
    "abstract": "歌志内市（うたしないし）は、北海道中部（道央地方）に位置し、空知総合振興局に属する市。全国最少の人口を有する市である。"
  },
  {
    "code": "01228",
    "name": "深川市",
    "region": "空知総合振興局",
    "coordinates": [
      142.053528,
      43.723184
    ],
    "wikipedia": "https://ja.wikipedia.org/wiki/%E6%B7%B1%E5%B7%9D%E5%B8%82",
    "abstract": "深川市（ふかがわし）は、北海道中部（道央地方）に位置し、空知総合振興局に属する市。"
  },
  {
    "code": "01229",
    "name": "富良野市",
    "region": "上川総合振興局",
    "coordinates": [
      142.383104,
      43.342024
    ],
    "wikipedia": "https://ja.wikipedia.org/wiki/%E5%AF%8C%E8%89%AF%E9%87%8E%E5%B8%82",
    "abstract": "富良野市（ふらのし）は、北海道北部（道北地方南部）に位置し、上川総合振興局に属する市。"
  },
  {
    "code": "01230",
    "name": "登別市",
    "region": "胆振総合振興局",
    "coordinates": [
      141.106556,
      42.412735
    ],
    "wikipedia": "https://ja.wikipedia.org/wiki/%E7%99%BB%E5%88%A5%E5%B8%82",
    "abstract": "登別市（のぼりべつし）は、北海道中南部（道央地方）に位置し、胆振総合振興局に属する市。"
  },
  {
    "code": "01231",
    "name": "恵庭市",
    "region": "石狩振興局",
    "coordinates": [
      141.577799,
      42.882592
    ],
    "wikipedia": "https://ja.wikipedia.org/wiki/%E6%81%B5%E5%BA%AD%E5%B8%82",
    "abstract": "恵庭市（えにわし）は、北海道中部（道央地方）に位置し、石狩振興局に属する市。"
  },
  {
    "code": "01233",
    "name": "伊達市",
    "region": "胆振総合振興局",
    "coordinates": [
      140.864702,
      42.471898
    ],
    "wikipedia": "https://ja.wikipedia.org/wiki/%E4%BC%8A%E9%81%94%E5%B8%82",
    "abstract": "伊達市（だてし）は、日本国の市。北海道と福島県に同じ名の自治体がある。どちらも伊達氏と関係のある市名である。 \n* 伊達市 (北海道) \n* 伊達市 (福島県) 同様の例については同一名称の市区町村一覧を参照。 このページは地名の曖昧さ回避のためのページです。一つの地名が2か所以上の場所に用いられている場合の水先案内のために、同じ地名を持つ場所を一覧にしてあります。お探しの場所に一番近い記事を選んでください。このページへリンクしているページを見つけたら、リンクを適切な項目に張り替えてください。"
  },
  {
    "code": "01234",
    "name": "北広島市",
    "region": "石狩振興局",
    "coordinates": [
      141.563625,
      42.985663
    ],
    "wikipedia": "https://ja.wikipedia.org/wiki/%E5%8C%97%E5%BA%83%E5%B3%B6%E5%B8%82",
    "abstract": "北広島市（きたひろしまし）は、北海道中部（道央地方）に位置し、石狩振興局に属する市。札幌市と新千歳空港の間に広がるなだらかな丘陵地帯に位置する。"
  },
  {
    "code": "01235",
    "name": "石狩市",
    "region": "石狩振興局",
    "coordinates": [
      141.315514,
      43.171365
    ],
    "wikipedia": "https://ja.wikipedia.org/wiki/%E7%9F%B3%E7%8B%A9%E5%B8%82",
    "abstract": "石狩市（いしかりし）は、北海道中央西部（道央地方）に位置し、石狩振興局管内に属する市。札幌市の北郊に隣接している。"
  },
  {
    "code": "01236",
    "name": "北斗市",
    "region": "渡島総合振興局",
    "coordinates": [
      140.653067,
      41.824174
    ],
    "wikipedia": "https://ja.wikipedia.org/wiki/%E5%8C%97%E6%96%97%E5%B8%82",
    "abstract": "北斗市（ほくとし）は、北海道西部（道南地方）に位置し、渡島総合振興局に属する市。2006年（平成18年）2月1日に上磯郡上磯町と亀田郡大野町の新設合併により誕生した。 渡島総合振興局（旧渡島支庁）管内では、1973年に亀田市が函館市に編入合併されて以来、函館市以外の市が存在しなかった。北斗市の誕生は、渡島管内で33年ぶりに現れた、函館市以外の市である。"
  },
  {
    "code": "01303",
    "name": "当別町",
    "region": "石狩振興局",
    "coordinates": [
      141.51700268,
      43.22363701
    ],
    "wikipedia": "https://ja.wikipedia.org/wiki/%E5%BD%93%E5%88%A5%E7%94%BA",
    "abstract": "当別町（とうべつちょう）は、北海道石狩振興局管内北東部にある町。"
  },
  {
    "code": "01304",
    "name": "新篠津村",
    "region": "石狩振興局",
    "coordinates": [
      141.649247,
      43.225368
    ],
    "wikipedia": "https://ja.wikipedia.org/wiki/%E6%96%B0%E7%AF%A0%E6%B4%A5%E6%9D%91",
    "abstract": "新篠津村（しんしのつむら）は、北海道石狩振興局管内北部にある管内唯一の村。"
  },
  {
    "code": "01332",
    "name": "福島町",
    "region": "渡島総合振興局",
    "coordinates": [
      140.251315,
      41.483783
    ],
    "wikipedia": "https://ja.wikipedia.org/wiki/%E7%A6%8F%E5%B3%B6%E7%94%BA",
    "abstract": "福島町（ふくしまちょう）は、北海道（道南地方）の渡島総合振興局に位置する町。渡島半島南西部に位置し、松前郡に属する。"
  },
  {
    "code": "01333",
    "name": "知内町",
    "region": "渡島総合振興局",
    "coordinates": [
      140.418861,
      41.598377
    ],
    "wikipedia": "https://ja.wikipedia.org/wiki/%E7%9F%A5%E5%86%85%E7%94%BA",
    "abstract": "知内町（しりうちちょう）は、北海道南西部（道南地方）の渡島総合振興局管内に属する町。"
  },
  {
    "code": "01334",
    "name": "木古内町",
    "region": "渡島総合振興局",
    "coordinates": [
      140.437635,
      41.678332
    ],
    "wikipedia": "https://ja.wikipedia.org/wiki/%E6%9C%A8%E5%8F%A4%E5%86%85%E7%94%BA",
    "abstract": "木古内町（きこないちょう）は、北海道渡島総合振興局中部にある町。"
  },
  {
    "code": "01337",
    "name": "七飯町",
    "region": "渡島総合振興局",
    "coordinates": [
      140.694405,
      41.895711
    ],
    "wikipedia": "https://ja.wikipedia.org/wiki/%E4%B8%83%E9%A3%AF%E7%94%BA",
    "abstract": "七飯町（ななえちょう）は、北海道渡島総合振興局にある町。"
  },
  {
    "code": "01343",
    "name": "鹿部町",
    "region": "渡島総合振興局",
    "coordinates": [
      140.815907,
      42.038567
    ],
    "wikipedia": "https://ja.wikipedia.org/wiki/%E9%B9%BF%E9%83%A8%E7%94%BA",
    "abstract": "鹿部町（しかべちょう）は、北海道渡島総合振興局中部にある町。茅部郡に属する。 町名の由来はアイヌ語の「シケルペ」（キハダのあるところの意）から。一時期、野生の鷹の多さから「鷹待（たかまち）」と呼ばれ、鷹が幕府への献上品とされた時期もあった。"
  },
  {
    "code": "01345",
    "name": "森町",
    "region": "渡島総合振興局",
    "coordinates": [
      140.576446,
      42.104992
    ],
    "wikipedia": "https://ja.wikipedia.org/wiki/%E6%A3%AE%E7%94%BA",
    "abstract": "森町（もりまち、もりちょう、しんまち） 現行自治体 \n* 森町 (北海道) - 北海道茅部郡森町。（もりまち） \n* 森町 (静岡県) - 静岡県周智郡森町。（もりまち） 旧自治体 \n* - 大分県玖珠郡。現:玖珠町・九重町。（もりまち） 町・字名 \n* 森町 (弘前市) - 青森県弘前市森町。（もりちょう） \n* - 愛知県豊田市森町。（もりちょう） \n* - 大分県大分市森町。（もちまち） \n* 箕面森町（みのおしんまち） - 大阪府箕面市のニュータウン。このページは地名の曖昧さ回避のためのページです。一つの地名が2か所以上の場所に用いられている場合の水先案内のために、同じ地名を持つ場所を一覧にしてあります。お探しの場所に一番近い記事を選んでください。このページへリンクしているページを見つけたら、リンクを適切な項目に張り替えてください。"
  },
  {
    "code": "01346",
    "name": "八雲町",
    "region": "渡島総合振興局",
    "coordinates": [
      140.265224,
      42.255918
    ],
    "wikipedia": "https://ja.wikipedia.org/wiki/%E5%85%AB%E9%9B%B2%E7%94%BA",
    "abstract": "八雲町（やくもちょう）は、北海道渡島総合振興局にある町。"
  },
  {
    "code": "01347",
    "name": "長万部町",
    "region": "渡島総合振興局",
    "coordinates": [
      140.380344,
      42.513488
    ],
    "wikipedia": "https://ja.wikipedia.org/wiki/%E9%95%B7%E4%B8%87%E9%83%A8%E7%94%BA",
    "abstract": "長万部町（おしゃまんべちょう）は、北海道渡島総合振興局北部にある町。南北に伸びた町域を擁し、交通の要衝として昭和時代から栄えてきた町である。"
  },
  {
    "code": "01361",
    "name": "江差町",
    "region": "檜山振興局",
    "coordinates": [
      140.12756,
      41.869244
    ],
    "wikipedia": "https://ja.wikipedia.org/wiki/%E6%B1%9F%E5%B7%AE%E7%94%BA",
    "abstract": "江差町（えさしちょう）は、北海道檜山振興局中部にある日本海に面した町。檜山振興局の所在地。江差追分発祥地。"
  },
  {
    "code": "01362",
    "name": "上ノ国町",
    "region": "檜山振興局",
    "coordinates": [
      140.121398,
      41.801042
    ],
    "wikipedia": "https://ja.wikipedia.org/wiki/%E4%B8%8A%E3%83%8E%E5%9B%BD%E7%94%BA",
    "abstract": "上ノ国町（かみのくにちょう）は、北海道南西部、檜山振興局管内最南端にある町。檜山郡に属する。日本海に臨む農漁業のまちである。"
  },
  {
    "code": "01363",
    "name": "厚沢部町",
    "region": "檜山振興局",
    "coordinates": [
      140.225475,
      41.920895
    ],
    "wikipedia": "https://ja.wikipedia.org/wiki/%E5%8E%9A%E6%B2%A2%E9%83%A8%E7%94%BA",
    "abstract": "厚沢部町（あっさぶちょう）は、北海道南西部、檜山振興局南東部にある農林業を主幹産業とする町である。檜山郡に属する。地名の由来はアイヌ語であるが、「アッ・サム（楡皮・のそば）」「ハチャム（桜鳥）」といった諸説がある。"
  },
  {
    "code": "01364",
    "name": "乙部町",
    "region": "檜山振興局",
    "coordinates": [
      140.13546,
      41.968504
    ],
    "wikipedia": "https://ja.wikipedia.org/wiki/%E4%B9%99%E9%83%A8%E7%94%BA",
    "abstract": "乙部町（おとべちょう）は、北海道南西部、檜山振興局中部にある日本海に面した町。 町名はアイヌ語の「オトウンペ」（河口に沼のある川）に由来する。その川は現在の姫川である。"
  },
  {
    "code": "01367",
    "name": "奥尻町",
    "region": "檜山振興局",
    "coordinates": [
      139.514121,
      42.17226
    ],
    "wikipedia": "https://ja.wikipedia.org/wiki/%E5%A5%A5%E5%B0%BB%E7%94%BA",
    "abstract": "奥尻町（おくしりちょう）は、北海道檜山振興局管内の奥尻郡にある町で、町域は奥尻島の全島である。"
  },
  {
    "code": "01370",
    "name": "今金町",
    "region": "檜山振興局",
    "coordinates": [
      140.008766,
      42.429373
    ],
    "wikipedia": "https://ja.wikipedia.org/wiki/%E4%BB%8A%E9%87%91%E7%94%BA",
    "abstract": "今金町（いまかねちょう）は、北海道南西部、檜山振興局北部にある町。"
  },
  {
    "code": "01392",
    "name": "寿都町",
    "region": "後志総合振興局",
    "coordinates": [
      140.228891,
      42.790984
    ],
    "wikipedia": "https://ja.wikipedia.org/wiki/%E5%AF%BF%E9%83%BD%E7%94%BA",
    "abstract": "寿都町（すっつちょう）は、北海道後志総合振興局管内にある町。寿都郡に属す。"
  },
  {
    "code": "01393",
    "name": "黒松内町",
    "region": "後志総合振興局",
    "coordinates": [
      140.307739,
      42.667788
    ],
    "wikipedia": "https://ja.wikipedia.org/wiki/%E9%BB%92%E6%9D%BE%E5%86%85%E7%94%BA",
    "abstract": "黒松内町（くろまつないちょう）は、北海道後志総合振興局管内の南端にある町。寿都郡に属す。"
  },
  {
    "code": "01394",
    "name": "蘭越町",
    "region": "後志総合振興局",
    "coordinates": [
      140.528346,
      42.809205
    ],
    "wikipedia": "https://ja.wikipedia.org/wiki/%E8%98%AD%E8%B6%8A%E7%94%BA",
    "abstract": "蘭越町（らんこしちょう）は、北海道磯谷郡にある町。 地名は、アイヌ語の「ランコ・ウシ」が訛ったもので、「桂の木の多い所」という意味。"
  },
  {
    "code": "01395",
    "name": "ニセコ町",
    "region": "後志総合振興局",
    "coordinates": [
      140.68754,
      42.804788
    ],
    "wikipedia": "https://ja.wikipedia.org/wiki/%E3%83%8B%E3%82%BB%E3%82%B3%E7%94%BA",
    "abstract": "ニセコ町（ニセコちょう）は、北海道虻田郡にある町。1964年（昭和39年）まで狩太町であった。"
  },
  {
    "code": "01396",
    "name": "真狩村",
    "region": "後志総合振興局",
    "coordinates": [
      140.803669,
      42.762955
    ],
    "wikipedia": "https://ja.wikipedia.org/wiki/%E7%9C%9F%E7%8B%A9%E6%9D%91",
    "abstract": "真狩村（まっかりむら）は、北海道後志総合振興局管内にある村である。虻田郡に属する。"
  },
  {
    "code": "01397",
    "name": "留寿都村",
    "region": "後志総合振興局",
    "coordinates": [
      140.875574,
      42.737263
    ],
    "wikipedia": "https://ja.wikipedia.org/wiki/%E7%95%99%E5%AF%BF%E9%83%BD%E6%9D%91",
    "abstract": "留寿都村（るすつむら）は、北海道後志総合振興局管内にある、虻田郡に属する村である。"
  },
  {
    "code": "01398",
    "name": "喜茂別町",
    "region": "後志総合振興局",
    "coordinates": [
      140.934532,
      42.795439
    ],
    "wikipedia": "https://ja.wikipedia.org/wiki/%E5%96%9C%E8%8C%82%E5%88%A5%E7%94%BA",
    "abstract": "喜茂別町（きもべつちょう）は、北海道後志総合振興局管内にある町である。虻田郡に属す。"
  },
  {
    "code": "01399",
    "name": "京極町",
    "region": "後志総合振興局",
    "coordinates": [
      140.883999,
      42.858216
    ],
    "wikipedia": "https://ja.wikipedia.org/wiki/%E4%BA%AC%E6%A5%B5%E7%94%BA",
    "abstract": "京極町（きょうごくちょう）は北海道後志総合振興局管内、羊蹄山（蝦夷富士）の麓にある町。 羊蹄山の湧き水が出るふきだし公園は、同町の観光名所である。 地名の由来は、開拓を率いた旧讃岐丸亀藩主家の京極高徳（後述）。"
  },
  {
    "code": "01400",
    "name": "倶知安町",
    "region": "後志総合振興局",
    "coordinates": [
      140.758878,
      42.901752
    ],
    "wikipedia": "https://ja.wikipedia.org/wiki/%E5%80%B6%E7%9F%A5%E5%AE%89%E7%94%BA",
    "abstract": "倶知安町（くっちゃんちょう, 英: Kutchan）は、北海道虻田郡にある町。後志総合振興局所在地。"
  },
  {
    "code": "01401",
    "name": "共和町",
    "region": "後志総合振興局",
    "coordinates": [
      140.611175,
      42.980407
    ],
    "wikipedia": "https://ja.wikipedia.org/wiki/%E5%85%B1%E5%92%8C%E7%94%BA",
    "abstract": "共和町（きょうわちょう）は北海道後志総合振興局管内の西部、岩内郡にある町。岩内町と隣接する西部地区は都市計画区域となっており、住宅地や国道276号沿いの商業地からなる市街地が形成されている。"
  },
  {
    "code": "01402",
    "name": "岩内町",
    "region": "後志総合振興局",
    "coordinates": [
      140.509212,
      42.978778
    ],
    "wikipedia": "https://ja.wikipedia.org/wiki/%E5%B2%A9%E5%86%85%E7%94%BA",
    "abstract": "岩内町（いわないちょう）は、北海道後志総合振興局管内にある町。岩内郡に属す。"
  },
  {
    "code": "01403",
    "name": "泊村:後志",
    "region": "後志総合振興局",
    "coordinates": [
      140.498857,
      43.063212
    ],
    "wikipedia": "https://ja.wikipedia.org/wiki/%E6%B3%8A%E6%9D%91",
    "abstract": "泊村（とまりむら）は、北海道後志総合振興局管内の古宇郡に属する村。北海道で唯一の原子力発電所があるため、村の財政は豊かである。 村名の由来は、中心地の入り江を指す、アイヌ語の「モイレ・トマリ（静かな・泊地）」である。"
  },
  {
    "code": "01404",
    "name": "神恵内村",
    "region": "後志総合振興局",
    "coordinates": [
      140.430817,
      43.143791
    ],
    "wikipedia": "https://ja.wikipedia.org/wiki/%E7%A5%9E%E6%81%B5%E5%86%85%E6%9D%91",
    "abstract": "神恵内村（かもえないむら）は、北海道後志総合振興局管内、古宇郡にある村。漁業を中心に明治から発展してきた。村名の由来は、アイヌ語の「カムイナイ」（神の沢）。2018年9月6日まで震度1以上の地震を2005年の観測開始以来一度も観測されたことがない日本で唯一の自治体であった。"
  },
  {
    "code": "01407",
    "name": "仁木町",
    "region": "後志総合振興局",
    "coordinates": [
      140.766168,
      43.151675
    ],
    "wikipedia": "https://ja.wikipedia.org/wiki/%E4%BB%81%E6%9C%A8%E7%94%BA",
    "abstract": "仁木町（にきちょう）は、北海道の後志総合振興局の北部に位置し、果樹栽培が盛んな町である。"
  },
  {
    "code": "01408",
    "name": "余市町",
    "region": "後志総合振興局",
    "coordinates": [
      140.783542,
      43.195343
    ],
    "wikipedia": "https://ja.wikipedia.org/wiki/%E4%BD%99%E5%B8%82%E7%94%BA",
    "abstract": "余市町（よいちちょう）は、北海道後志総合振興局にある町。"
  },
  {
    "code": "01409",
    "name": "赤井川村",
    "region": "後志総合振興局",
    "coordinates": [
      140.81364,
      43.083479
    ],
    "wikipedia": "https://ja.wikipedia.org/wiki/%E8%B5%A4%E4%BA%95%E5%B7%9D%E6%9D%91",
    "abstract": "赤井川村（あかいがわむら）は、北海道後志総合振興局管内、余市郡にある村である。面積の大部分が山地の森林で、北西のカルデラ盆地に村の中心と農地が広がる。盆地内特有の内陸性気候で積雪が多く、道内でも有数の豪雪地帯となっている。かつての噴火活動で形成されたカルデラ地形の上にある村である。 「日本で最も美しい村連合」の一つ。 村の名前の由来はアイヌ語の「フレ・ベッ」（赤い・川）の意訳。"
  },
  {
    "code": "01423",
    "name": "南幌町",
    "region": "空知総合振興局",
    "coordinates": [
      141.65033,
      43.063739
    ],
    "wikipedia": "https://ja.wikipedia.org/wiki/%E5%8D%97%E5%B9%8C%E7%94%BA",
    "abstract": "南幌町（なんぽろちょう）は、北海道空知総合振興局管内南部にある町。長く過疎地域に指定されていたが、1990年代に札幌市のベッドタウン化が進み、人口が5,000人台から9,000人台まで急増した。 地名の由来は、元々はアイヌ語で「湾曲して緩やかに流れる所」を意味する「ポロモイ」。石狩川の湾曲部を指している。当時は漢字で「幌向（ほろむい）」と表記されていたが、現在の岩見沢市に同名の地名があって紛らわしいため、町制施行の際に「南幌」となった。"
  },
  {
    "code": "01424",
    "name": "奈井江町",
    "region": "空知総合振興局",
    "coordinates": [
      141.882816,
      43.425353
    ],
    "wikipedia": "https://ja.wikipedia.org/wiki/%E5%A5%88%E4%BA%95%E6%B1%9F%E7%94%BA",
    "abstract": "奈井江町（ないえちょう）は、北海道の空知地方中部に位置する町。かつて石炭産業で栄えたが、閉山に伴い人口は激減。農業・工業の振興を図る一方、福祉政策に力点を置く。"
  },
  {
    "code": "01425",
    "name": "上砂川町",
    "region": "空知総合振興局",
    "coordinates": [
      141.984064,
      43.482538
    ],
    "wikipedia": "https://ja.wikipedia.org/wiki/%E4%B8%8A%E7%A0%82%E5%B7%9D%E7%94%BA",
    "abstract": "上砂川町（かみすながわちょう）は、北海道の空知郡に属する町。上砂川炭田があり、かつて産炭地として他の空知炭田群とともに日本の資本主義経済を支えた。道内の自治体としては、椴法華村の函館市編入以降、道内で最小の面積の自治体となっている。"
  },
  {
    "code": "01427",
    "name": "由仁町",
    "region": "空知総合振興局",
    "coordinates": [
      141.790309,
      42.999598
    ],
    "wikipedia": "https://ja.wikipedia.org/wiki/%E7%94%B1%E4%BB%81%E7%94%BA",
    "abstract": "由仁町（ゆにちょう）は、北海道空知総合振興局管内、夕張郡にある町。札幌市の東、約42kmに位置する。ヤリキレナイ川が有名である。 地名の由来は、アイヌ語の「ユウンニ（温泉のある所）」から。"
  },
  {
    "code": "01428",
    "name": "長沼町",
    "region": "空知総合振興局",
    "coordinates": [
      141.695367,
      43.01034
    ],
    "wikipedia": "https://ja.wikipedia.org/wiki/%E9%95%B7%E6%B2%BC%E7%94%BA",
    "abstract": "長沼町（ながぬまちょう）は、北海道空知総合振興局管内南部にある町。北広島市の東に隣接する。町名は、開拓前に町域にあった河跡湖（三日月湖）の細長い沼に由来する。先住民のアイヌにアイヌ語で「タンネ・ト」tanne-to[細長い・沼] と呼ばれていた。"
  },
  {
    "code": "01429",
    "name": "栗山町",
    "region": "空知総合振興局",
    "coordinates": [
      141.784099,
      43.05629
    ],
    "wikipedia": "https://ja.wikipedia.org/wiki/%E6%A0%97%E5%B1%B1%E7%94%BA",
    "abstract": "栗山町（くりやまちょう）は、北海道空知総合振興局管内南部にある町。 町名の由来はアイヌ語のヤムニウシで、ヤムニ・ウシ（栗の木・多いところ）の意訳といわれている。旧町名・角田（かくた）は、開拓者の出身地仙台藩角田（かくだ）よりとられた。"
  },
  {
    "code": "01430",
    "name": "月形町",
    "region": "空知総合振興局",
    "coordinates": [
      141.669604,
      43.338397
    ],
    "wikipedia": "https://ja.wikipedia.org/wiki/%E6%9C%88%E5%BD%A2%E7%94%BA",
    "abstract": "月形町（つきがたちょう）は、北海道空知総合振興局管内にある町。"
  },
  {
    "code": "01431",
    "name": "浦臼町",
    "region": "空知総合振興局",
    "coordinates": [
      141.818727,
      43.430363
    ],
    "wikipedia": "https://ja.wikipedia.org/wiki/%E6%B5%A6%E8%87%BC%E7%94%BA",
    "abstract": "浦臼町（うらうすちょう）は、北海道空知総合振興局管内にある町である。樺戸郡に属する。"
  },
  {
    "code": "01432",
    "name": "新十津川町",
    "region": "空知総合振興局",
    "coordinates": [
      141.877009,
      43.5485
    ],
    "wikipedia": "https://ja.wikipedia.org/wiki/%E6%96%B0%E5%8D%81%E6%B4%A5%E5%B7%9D%E7%94%BA",
    "abstract": "新十津川町（しんとつかわちょう）は、北海道の空知地方中部にある町。"
  },
  {
    "code": "01433",
    "name": "妹背牛町",
    "region": "空知総合振興局",
    "coordinates": [
      141.961606,
      43.700093
    ],
    "wikipedia": "https://ja.wikipedia.org/wiki/%E5%A6%B9%E8%83%8C%E7%89%9B%E7%94%BA",
    "abstract": "妹背牛町（もせうしちょう）は、北海道空知総合振興局管内北部にある町。"
  },
  {
    "code": "01434",
    "name": "秩父別町",
    "region": "空知総合振興局",
    "coordinates": [
      141.957896,
      43.767
    ],
    "wikipedia": "https://ja.wikipedia.org/wiki/%E7%A7%A9%E7%88%B6%E5%88%A5%E7%94%BA",
    "abstract": "秩父別町（ちっぷべつちょう）は、北海道空知管内北部にある町。"
  },
  {
    "code": "01436",
    "name": "雨竜町",
    "region": "空知総合振興局",
    "coordinates": [
      141.889036,
      43.643943
    ],
    "wikipedia": "https://ja.wikipedia.org/wiki/%E9%9B%A8%E7%AB%9C%E7%94%BA",
    "abstract": "雨竜町（うりゅうちょう）は、北海道空知総合振興局管内にある町。暑寒別岳東側にある、雨竜沼湿原が有名。"
  },
  {
    "code": "01437",
    "name": "北竜町",
    "region": "空知総合振興局",
    "coordinates": [
      141.879409,
      43.731426
    ],
    "wikipedia": "https://ja.wikipedia.org/wiki/%E5%8C%97%E7%AB%9C%E7%94%BA",
    "abstract": "北竜町（ほくりゅうちょう）は、北海道の空知総合振興局管内北部にある町である。雨竜郡に属する。 町名は母町の雨竜町北部に隣接することによる。ヒマワリの作付面積は日本最大規模であり、ヒマワリを中心とした町づくりを行っている。"
  },
  {
    "code": "01438",
    "name": "沼田町",
    "region": "空知総合振興局",
    "coordinates": [
      141.933817,
      43.80674
    ],
    "wikipedia": "https://ja.wikipedia.org/wiki/%E6%B2%BC%E7%94%B0%E7%94%BA",
    "abstract": "沼田町（ぬまたちょう）は、北海道空知管内北部にある町。"
  },
  {
    "code": "01452",
    "name": "鷹栖町",
    "region": "上川総合振興局",
    "coordinates": [
      142.354382,
      43.843321
    ],
    "wikipedia": "https://ja.wikipedia.org/wiki/%E9%B7%B9%E6%A0%96%E7%94%BA",
    "abstract": "鷹栖町（たかすちょう）は、北海道上川総合振興局にある町。"
  },
  {
    "code": "01453",
    "name": "東神楽町",
    "region": "上川総合振興局",
    "coordinates": [
      142.451571,
      43.696303
    ],
    "wikipedia": "https://ja.wikipedia.org/wiki/%E6%9D%B1%E7%A5%9E%E6%A5%BD%E7%94%BA",
    "abstract": "東神楽町（ひがしかぐらちょう）は、北海道上川郡にある町。町内に旭川空港がある。"
  },
  {
    "code": "01454",
    "name": "当麻町",
    "region": "上川総合振興局",
    "coordinates": [
      142.508388,
      43.828201
    ],
    "wikipedia": "https://ja.wikipedia.org/wiki/%E5%BD%93%E9%BA%BB%E7%94%BA",
    "abstract": "当麻町（とうまちょう）は、北海道中央部の、上川郡(石狩国)にある町である。旭川都市圏の東の玄関口。 農業と林業が主幹産業の町。農業においては北海道を代表する優良米の産地であり、北海道農協米対策本部による米ランキングでは、12年連続1位の評価を獲得している。また、一玉75万円(令和元年初競り)の値がつくこともある真っ黒なブランドスイカ「でんすけすいか」の生産地である。また｢夏バラ日本一｣と評価される｢大雪の薔薇｣や町花であるキクの生産地でもある。キュウリやトマトの生産も盛んである。町面積の約65％が山林であり、林業も盛んな町である。当麻町森林組合が管理、施業、製材を担い、公共施設への町産木材有効活用や、住宅への町産木材活用補助などを積極的に行っている。"
  },
  {
    "code": "01455",
    "name": "比布町",
    "region": "上川総合振興局",
    "coordinates": [
      142.477699,
      43.875021
    ],
    "wikipedia": "https://ja.wikipedia.org/wiki/%E6%AF%94%E5%B8%83%E7%94%BA",
    "abstract": "比布町（ぴっぷちょう）は、北海道中央部・上川盆地にある町。 中心産業は農業で「ゆめぴりか」米発祥の地。その他にも「大雪山が世界一きれいに見える町」でもある。"
  },
  {
    "code": "01456",
    "name": "愛別町",
    "region": "上川総合振興局",
    "coordinates": [
      142.577822,
      43.906679
    ],
    "wikipedia": "https://ja.wikipedia.org/wiki/%E6%84%9B%E5%88%A5%E7%94%BA",
    "abstract": "愛別町（あいべつちょう）は、北海道上川地方中部の石狩国上川郡にある町。"
  },
  {
    "code": "01457",
    "name": "上川町",
    "region": "上川総合振興局",
    "coordinates": [
      142.770459,
      43.847128
    ],
    "wikipedia": "https://ja.wikipedia.org/wiki/%E4%B8%8A%E5%B7%9D%E7%94%BA",
    "abstract": "上川町（かみかわちょう）は北海道上川地方中部、上川郡にある町。大雪山のうちの一つ黒岳への登山口には、北海道有数の温泉街である層雲峡温泉がある。大雪高原温泉の秋の紅葉は「日本一の紅葉」として知られ、紅葉時期には交通規制がなされるほど混雑する。ラーメン日本一の町として「上川ラーメン」にも力を入れている。 北の森ガーデンには、道内でも数少ない熊牧場がある。"
  },
  {
    "code": "01458",
    "name": "東川町",
    "region": "上川総合振興局",
    "coordinates": [
      142.510128,
      43.698877
    ],
    "wikipedia": "https://ja.wikipedia.org/wiki/%E6%9D%B1%E5%B7%9D%E7%94%BA",
    "abstract": "東川町（ひがしかわちょう）は、北海道上川総合振興局にある町。"
  },
  {
    "code": "01459",
    "name": "美瑛町",
    "region": "上川総合振興局",
    "coordinates": [
      142.467055,
      43.588279
    ],
    "wikipedia": "https://ja.wikipedia.org/wiki/%E7%BE%8E%E7%91%9B%E7%94%BA",
    "abstract": "美瑛町（びえいちょう）は、北海道上川郡にある町。「日本で最も美しい村連合」加盟。"
  },
  {
    "code": "01460",
    "name": "上富良野町",
    "region": "上川総合振興局",
    "coordinates": [
      142.467112,
      43.455614
    ],
    "wikipedia": "https://ja.wikipedia.org/wiki/%E4%B8%8A%E5%AF%8C%E8%89%AF%E9%87%8E%E7%94%BA",
    "abstract": "上富良野町（かみふらのちょう）は、北海道上川総合振興局にある町。"
  },
  {
    "code": "01461",
    "name": "中富良野町",
    "region": "上川総合振興局",
    "coordinates": [
      142.425034,
      43.405576
    ],
    "wikipedia": "https://ja.wikipedia.org/wiki/%E4%B8%AD%E5%AF%8C%E8%89%AF%E9%87%8E%E7%94%BA",
    "abstract": "中富良野町（なかふらのちょう）は、北海道のほぼ中央・富良野地区にある町。「ラベンダーのまち」として有名。"
  },
  {
    "code": "01462",
    "name": "南富良野町",
    "region": "上川総合振興局",
    "coordinates": [
      142.568522,
      43.164088
    ],
    "wikipedia": "https://ja.wikipedia.org/wiki/%E5%8D%97%E5%AF%8C%E8%89%AF%E9%87%8E%E7%94%BA",
    "abstract": "南富良野町（みなみふらのちょう）は、北海道空知郡にある町。"
  },
  {
    "code": "01463",
    "name": "占冠村",
    "region": "上川総合振興局",
    "coordinates": [
      142.398526,
      42.979836
    ],
    "wikipedia": "https://ja.wikipedia.org/wiki/%E5%8D%A0%E5%86%A0%E6%9D%91",
    "abstract": "占冠村（しむかっぷむら）は、北海道勇払郡にある村。"
  },
  {
    "code": "01464",
    "name": "和寒町",
    "region": "上川総合振興局",
    "coordinates": [
      142.413383,
      44.023119
    ],
    "wikipedia": "https://ja.wikipedia.org/wiki/%E5%92%8C%E5%AF%92%E7%94%BA",
    "abstract": "和寒町（わっさむちょう）は、北海道の上川地方北部、上川郡 (天塩国)にある町。スキーのクロスカントリーが盛んで数多くの国内トップ選手を輩出してきた。"
  },
  {
    "code": "01465",
    "name": "剣淵町",
    "region": "上川総合振興局",
    "coordinates": [
      142.361007,
      44.095746
    ],
    "wikipedia": "https://ja.wikipedia.org/wiki/%E5%89%A3%E6%B7%B5%E7%94%BA",
    "abstract": "剣淵町（けんぶちちょう）は、北海道上川地方北部、天塩国上川郡にある町。 「絵本の里」として絵本による街づくりを目指している。"
  },
  {
    "code": "01468",
    "name": "下川町",
    "region": "上川総合振興局",
    "coordinates": [
      142.635219,
      44.302576
    ],
    "wikipedia": "https://ja.wikipedia.org/wiki/%E4%B8%8B%E5%B7%9D%E7%94%BA",
    "abstract": "下川町（しもかわちょう）は、北海道上川地方の天塩国上川郡にある町である。北海道内では道北に位置付けられる。"
  },
  {
    "code": "01469",
    "name": "美深町",
    "region": "上川総合振興局",
    "coordinates": [
      142.342963,
      44.480994
    ],
    "wikipedia": "https://ja.wikipedia.org/wiki/%E7%BE%8E%E6%B7%B1%E7%94%BA",
    "abstract": "美深町（びふかちょう）は、北海道の上川地方北部に位置する町。"
  },
  {
    "code": "01470",
    "name": "音威子府村",
    "region": "上川総合振興局",
    "coordinates": [
      142.262458,
      44.725096
    ],
    "wikipedia": "https://ja.wikipedia.org/wiki/%E9%9F%B3%E5%A8%81%E5%AD%90%E5%BA%9C%E6%9D%91",
    "abstract": "音威子府村（おといねっぷむら）は、北海道上川地方北部に位置する村である。2012年時点、道内で最も人口の少ない自治体であり、2012年12月に神恵内村の人口が1,000人に割り込む前までは唯一、人口が1,000人以下の地方公共団体（北方領土の村を除く）であった。「森と匠の村」を標榜し、豊富な森林資源を生かした工芸による村おこしを推進している。"
  },
  {
    "code": "01471",
    "name": "中川町",
    "region": "上川総合振興局",
    "coordinates": [
      142.071409,
      44.811488
    ],
    "wikipedia": "https://ja.wikipedia.org/wiki/%E4%B8%AD%E5%B7%9D%E7%94%BA",
    "abstract": "中川町（なかがわちょう）は、上川地方最北部に位置する町。 明治期よりアンモナイトの化石が発掘され、「化石の里」として町おこしを行っている。"
  },
  {
    "code": "01472",
    "name": "幌加内町",
    "region": "上川総合振興局",
    "coordinates": [
      142.153828,
      44.009812
    ],
    "wikipedia": "https://ja.wikipedia.org/wiki/%E5%B9%8C%E5%8A%A0%E5%86%85%E7%94%BA",
    "abstract": "幌加内町（ほろかないちょう）は、北海道上川管内西部にある町。もともとは旧・空知支庁の管轄であったが、隣接する上川管内との結びつきが強いことから、2010年（平成22年）4月1日に施行された北海道総合振興局及び振興局設置条例において上川総合振興局に管轄が移動した。町のキャッチコピーは開基100年を迎えた1997年（平成9年）制定の「森と湖と白い大地　夢ロマン2世紀へ」を現在も継続して使用している。 町としては北海道で最も人口が少なく、2015年（平成27年）の国勢調査では人口密度が日本一低い町である。市町村全体でも福島県南会津郡檜枝岐村、奈良県吉野郡上北山村に次いで3番目に人口密度が低い。"
  },
  {
    "code": "01481",
    "name": "増毛町",
    "region": "留萌振興局",
    "coordinates": [
      141.524978,
      43.856063
    ],
    "wikipedia": "https://ja.wikipedia.org/wiki/%E5%A2%97%E6%AF%9B%E7%94%BA",
    "abstract": "増毛町（ましけちょう）は、北海道の北西部、留萌振興局管内南部にある町である。日本海の海岸美がみられる雄冬海岸と暑寒別天売焼尻国定公園の一部である暑寒別岳を抱える。歴史は古く、町内には北海道遺産に選定されたレトロな建物が立ち並ぶ。ボタンエビの漁獲高が日本一であるが、アマエビやタコなどの水揚げも多い。良質の水を利用して酒造も行われており、明治時代からある國稀酒造（元：丸一本間合名会社）は、日本最北にある造り酒屋でもある。 町名の由来はアイヌ語の「マシュキニ」「マシュケ」（カモメの多いところ）から。"
  },
  {
    "code": "01482",
    "name": "小平町",
    "region": "留萌振興局",
    "coordinates": [
      141.662828,
      44.015141
    ],
    "wikipedia": "https://ja.wikipedia.org/wiki/%E5%B0%8F%E5%B9%B3%E7%94%BA",
    "abstract": "小平町（おびらちょう）は北海道西海岸の町。留萌郡に属する。 町名の語源はアイヌ語の「オピラシペツ」o-pira-us-pet（河口に・崖・ある・川）で、町の中央を流れる小平蘂川の名に由来する。小平蘂川上中流域は白亜紀の化石の産地である。夏は臼谷、鬼鹿など海水浴客で賑わう。 かつては留萌炭田を抱える産炭地であって、1947年（昭和22年）頃にはその最盛期を迎えた。鉄路も留萌本線留萌駅から羽幌線、天塩炭礦鉄道、達布森林鉄道などが延びていて昭和40年代までは活況を呈していたが、閉山後に衰退。1956年（昭和31年）に鬼鹿村を併合した時の人口は3万人近かったが、現在は3000人弱となっている。"
  },
  {
    "code": "01483",
    "name": "苫前町",
    "region": "留萌振興局",
    "coordinates": [
      141.652932,
      44.306086
    ],
    "wikipedia": "https://ja.wikipedia.org/wiki/%E8%8B%AB%E5%89%8D%E7%94%BA",
    "abstract": "苫前町（とままえちょう）は、北海道留萌管内中部に位置する町。"
  },
  {
    "code": "01484",
    "name": "羽幌町",
    "region": "留萌振興局",
    "coordinates": [
      141.697249,
      44.36061
    ],
    "wikipedia": "https://ja.wikipedia.org/wiki/%E7%BE%BD%E5%B9%8C%E7%94%BA",
    "abstract": "羽幌町（はぼろちょう）は、北海道北部（道北）の西海岸にある半農半商の町で、留萌振興局管内中部に位置する。かつては、道内・国内屈指の炭鉱の街でもあった。日本海に沈む夕日のきれいな街としても知られている。 暑寒別天売焼尻国定公園の一部である天売島・焼尻島も羽幌町に属しており、東西南北雄大な天然資源に恵まれた地であることから、その資源を活用した観光業、漁業、農業、風力発電が盛んな街であり、多くの観光客が訪れている。甘えびの水揚げでも知られ、その漁獲量は日本一を誇る。夏は多くの海水浴客が訪れる。留萌振興局管内では、人口は留萌市に続き2番目である。"
  },
  {
    "code": "01485",
    "name": "初山別村",
    "region": "留萌振興局",
    "coordinates": [
      141.766342,
      44.532149
    ],
    "wikipedia": "https://ja.wikipedia.org/wiki/%E5%88%9D%E5%B1%B1%E5%88%A5%E6%9D%91",
    "abstract": "初山別村（しょさんべつむら）は、北海道北西部、留萌管内中部にある村。日本最北の天文台であるしょさんべつ天文台が置かれる。"
  },
  {
    "code": "01486",
    "name": "遠別町",
    "region": "留萌振興局",
    "coordinates": [
      141.792322,
      44.722462
    ],
    "wikipedia": "https://ja.wikipedia.org/wiki/%E9%81%A0%E5%88%A5%E7%94%BA",
    "abstract": "遠別町（えんべつちょう）は、北海道の留萌管内北部にある町。上川管内の美深町と並び、日本の稲作の北限地。"
  },
  {
    "code": "01487",
    "name": "天塩町",
    "region": "留萌振興局",
    "coordinates": [
      141.745324,
      44.888121
    ],
    "wikipedia": "https://ja.wikipedia.org/wiki/%E5%A4%A9%E5%A1%A9%E7%94%BA",
    "abstract": "天塩町（てしおちょう）は、北海道北部の西海岸に位置する町。北海道内第2位の長さで北海道遺産の大河、天塩川の河口に位置する。大ぶりなシジミの産地として有名。"
  },
  {
    "code": "01511",
    "name": "猿払村",
    "region": "宗谷総合振興局",
    "coordinates": [
      142.108945,
      45.33061
    ],
    "wikipedia": "https://ja.wikipedia.org/wiki/%E7%8C%BF%E6%89%95%E6%9D%91",
    "abstract": "猿払村（さるふつむら）は、北海道宗谷地方北部に位置する村である。北海道を代表するホタテの水揚げ地として有名。 村名の由来は、アイヌ語の「サラ・プツ（葦原の河口）」から。"
  },
  {
    "code": "01512",
    "name": "浜頓別町",
    "region": "宗谷総合振興局",
    "coordinates": [
      142.35964,
      45.123716
    ],
    "wikipedia": "https://ja.wikipedia.org/wiki/%E6%B5%9C%E9%A0%93%E5%88%A5%E7%94%BA",
    "abstract": "浜頓別町（はまとんべつちょう）は、北海道最北の宗谷地方東部に位置する町である。町内にあるクッチャロ湖は、野鳥がたくさん集まりラムサール条約の保護区に指定されている。 町名の由来はアイヌ語「トー・ウン・ペッ」（湖から出る川）から。"
  },
  {
    "code": "01513",
    "name": "中頓別町",
    "region": "宗谷総合振興局",
    "coordinates": [
      142.286705,
      44.96971
    ],
    "wikipedia": "https://ja.wikipedia.org/wiki/%E4%B8%AD%E9%A0%93%E5%88%A5%E7%94%BA",
    "abstract": "中頓別町（なかとんべつちょう）は、北海道の宗谷地方南部に位置する町である。 町名の由来は、アイヌ語の「トー・ウン・ペッ（湖から出る川）」からであり、頓別川の中流に位置するため「中」が冠してある。"
  },
  {
    "code": "01514",
    "name": "枝幸町",
    "region": "宗谷総合振興局",
    "coordinates": [
      142.581405,
      44.9387
    ],
    "wikipedia": "https://ja.wikipedia.org/wiki/%E6%9E%9D%E5%B9%B8%E7%94%BA",
    "abstract": "枝幸町（えさしちょう）は、北海道宗谷総合振興局管内の南部に位置する町。毛がに籠漁日本一。"
  },
  {
    "code": "01516",
    "name": "豊富町",
    "region": "宗谷総合振興局",
    "coordinates": [
      141.777508,
      45.102847
    ],
    "wikipedia": "https://ja.wikipedia.org/wiki/%E8%B1%8A%E5%AF%8C%E7%94%BA",
    "abstract": "豊富町（とよとみちょう）は、北海道宗谷総合振興局管内の日本海側に位置する町である。利尻礼文サロベツ国立公園の一部であるサロベツ原野が広がり、日本最北の温泉郷「豊富温泉」が有名である。"
  },
  {
    "code": "01518",
    "name": "利尻町",
    "region": "宗谷総合振興局",
    "coordinates": [
      141.139597,
      45.187041
    ],
    "wikipedia": "https://ja.wikipedia.org/wiki/%E5%88%A9%E5%B0%BB%E7%94%BA",
    "abstract": "利尻町（りしりちょう）は、北海道最北の宗谷地方、利尻島にある町。 町名の由来は、アイヌ語で「リ・シㇼ（ri-sir）」（高い・島）から。"
  },
  {
    "code": "01519",
    "name": "利尻富士町",
    "region": "宗谷総合振興局",
    "coordinates": [
      141.214719,
      45.247459
    ],
    "wikipedia": "https://ja.wikipedia.org/wiki/%E5%88%A9%E5%B0%BB%E5%AF%8C%E5%A3%AB%E7%94%BA",
    "abstract": "利尻富士町（りしりふじちょう）は、北海道最北の宗谷地方、利尻島にある町。地名の由来は、アイヌ語の「リー・シリ」（高い島）に由来する利尻山の通称「利尻富士」から。"
  },
  {
    "code": "01520",
    "name": "幌延町",
    "region": "宗谷総合振興局",
    "coordinates": [
      141.849386,
      45.017635
    ],
    "wikipedia": "https://ja.wikipedia.org/wiki/%E5%B9%8C%E5%BB%B6%E7%94%BA",
    "abstract": "幌延町（ほろのべちょう）は、北海道の北部、宗谷総合振興局管内の中西部にあり、日本海に面する町。天塩郡に属する。"
  },
  {
    "code": "01543",
    "name": "美幌町",
    "region": "オホーツク総合振興局",
    "coordinates": [
      144.107151,
      43.823721
    ],
    "wikipedia": "https://ja.wikipedia.org/wiki/%E7%BE%8E%E5%B9%8C%E7%94%BA",
    "abstract": "美幌町（びほろちょう）は、北海道オホーツク総合振興局管内にある町。"
  },
  {
    "code": "01544",
    "name": "津別町",
    "region": "オホーツク総合振興局",
    "coordinates": [
      144.024803,
      43.706316
    ],
    "wikipedia": "https://ja.wikipedia.org/wiki/%E6%B4%A5%E5%88%A5%E7%94%BA",
    "abstract": "津別町（つべつちょう）は、北海道オホーツク総合振興局管内の網走郡にある町である。 町名の由来は、アイヌ語の「トゥペッ」から。意味は「二つの川」あるいは「山の出ばなを通っている川」。"
  },
  {
    "code": "01545",
    "name": "斜里町",
    "region": "オホーツク総合振興局",
    "coordinates": [
      144.670713,
      43.911441
    ],
    "wikipedia": "https://ja.wikipedia.org/wiki/%E6%96%9C%E9%87%8C%E7%94%BA",
    "abstract": "斜里町（しゃりちょう）は、北海道オホーツク総合振興局にある町。道東にある知床半島の北側を占め、オホーツク海に面する。"
  },
  {
    "code": "01546",
    "name": "清里町",
    "region": "オホーツク総合振興局",
    "coordinates": [
      144.594582,
      43.835224
    ],
    "wikipedia": "https://ja.wikipedia.org/wiki/%E6%B8%85%E9%87%8C%E7%94%BA",
    "abstract": "清里町（きよさとちょう）は、北海道オホーツク総合振興局管内の斜里郡にある町。"
  },
  {
    "code": "01547",
    "name": "小清水町",
    "region": "オホーツク総合振興局",
    "coordinates": [
      144.462114,
      43.856679
    ],
    "wikipedia": "https://ja.wikipedia.org/wiki/%E5%B0%8F%E6%B8%85%E6%B0%B4%E7%94%BA",
    "abstract": "小清水町（こしみずちょう）は、北海道オホーツク総合振興局管内の斜里郡にある町。"
  },
  {
    "code": "01549",
    "name": "訓子府町",
    "region": "オホーツク総合振興局",
    "coordinates": [
      143.741665,
      43.725328
    ],
    "wikipedia": "https://ja.wikipedia.org/wiki/%E8%A8%93%E5%AD%90%E5%BA%9C%E7%94%BA",
    "abstract": "訓子府町（くんねっぷちょう）は、北海道オホーツク総合振興局管内の常呂郡にある町。"
  },
  {
    "code": "01550",
    "name": "置戸町",
    "region": "オホーツク総合振興局",
    "coordinates": [
      143.586402,
      43.676328
    ],
    "wikipedia": "https://ja.wikipedia.org/wiki/%E7%BD%AE%E6%88%B8%E7%94%BA",
    "abstract": "置戸町（おけとちょう）は、北海道オホーツク総合振興局にある常呂郡の町。"
  },
  {
    "code": "01552",
    "name": "佐呂間町",
    "region": "オホーツク総合振興局",
    "coordinates": [
      143.774714,
      44.017859
    ],
    "wikipedia": "https://ja.wikipedia.org/wiki/%E4%BD%90%E5%91%82%E9%96%93%E7%94%BA",
    "abstract": "佐呂間町（さろまちょう）は、北海道オホーツク総合振興局管内の常呂郡にある町。 町名の由来は、アイヌ語のサロマペッsar-oma-pet（葦原・にある・川）から。"
  },
  {
    "code": "01555",
    "name": "遠軽町",
    "region": "オホーツク総合振興局",
    "coordinates": [
      143.527726,
      44.061947
    ],
    "wikipedia": "https://ja.wikipedia.org/wiki/%E9%81%A0%E8%BB%BD%E7%94%BA",
    "abstract": "遠軽町（えんがるちょう）は、北海道オホーツク総合振興局管内、紋別郡にある町。 なお現在の自治体としての遠軽町は、2005年（平成17年）に当時の遠軽町、生田原町、丸瀬布町、白滝村の紋別郡3町1村が対等合併して新たに設置された自治体であるが、本項では便宜上合併以前の旧・遠軽町、およびその前身の旧・遠軽村についても述べる。"
  },
  {
    "code": "01559",
    "name": "湧別町",
    "region": "オホーツク総合振興局",
    "coordinates": [
      143.572919,
      44.151465
    ],
    "wikipedia": "https://ja.wikipedia.org/wiki/%E6%B9%A7%E5%88%A5%E7%94%BA",
    "abstract": "湧別町（ゆうべつちょう）は、オホーツク総合振興局管内中部、オホーツク海沿岸に位置する町。地名はアイヌ語でチョウザメを意味する「ユペ」か、「ユーペツ」（温泉の川）に由来するとされる。"
  },
  {
    "code": "01560",
    "name": "滝上町",
    "region": "オホーツク総合振興局",
    "coordinates": [
      143.07765,
      44.19227
    ],
    "wikipedia": "https://ja.wikipedia.org/wiki/%E6%BB%9D%E4%B8%8A%E7%94%BA",
    "abstract": "滝上町（たきのうえちょう）は、北海道オホーツク総合振興局管内の北部に位置し、上川管内に接する町。 滝上公園のシバザクラ（10万平方メートル＝甲子園の7倍の広さ）も有名。見頃は5月下旬から6月上旬にかけて。 童話村としての町おこしもすすめている。"
  },
  {
    "code": "01561",
    "name": "興部町",
    "region": "オホーツク総合振興局",
    "coordinates": [
      143.123699,
      44.469874
    ],
    "wikipedia": "https://ja.wikipedia.org/wiki/%E8%88%88%E9%83%A8%E7%94%BA",
    "abstract": "興部町（おこっぺちょう）は、北海道オホーツク総合振興局管内の北部に位置する町。"
  },
  {
    "code": "01562",
    "name": "西興部村",
    "region": "オホーツク総合振興局",
    "coordinates": [
      142.944445,
      44.328833
    ],
    "wikipedia": "https://ja.wikipedia.org/wiki/%E8%A5%BF%E8%88%88%E9%83%A8%E6%9D%91",
    "abstract": "西興部村（にしおこっぺむら）は、北海道オホーツク総合振興局管内の北部に位置する村である。道北 地方の内陸にあり、面積の約9割を森林が占める。 村名の由来は、母町である興部町の西に位置することから。積極的な地域情報化政策を行ったことで知られている。イメージキャラクターにセトウシくんがいる。"
  },
  {
    "code": "01563",
    "name": "雄武町",
    "region": "オホーツク総合振興局",
    "coordinates": [
      142.961863,
      44.582482
    ],
    "wikipedia": "https://ja.wikipedia.org/wiki/%E9%9B%84%E6%AD%A6%E7%94%BA",
    "abstract": "雄武町（おうむちょう）は、北海道オホーツク総合振興局管内の北部に位置する町。"
  },
  {
    "code": "01564",
    "name": "大空町",
    "region": "オホーツク総合振興局",
    "coordinates": [
      144.172473,
      43.911858
    ],
    "wikipedia": "https://ja.wikipedia.org/wiki/%E5%A4%A7%E7%A9%BA%E7%94%BA",
    "abstract": "大空町（おおぞらちょう）は、北海道オホーツク総合振興局管内の、網走郡に属する町。2006年に女満別町と東藻琴村が合併して誕生した。"
  },
  {
    "code": "01571",
    "name": "豊浦町",
    "region": "胆振総合振興局",
    "coordinates": [
      140.711815,
      42.583464
    ],
    "wikipedia": "https://ja.wikipedia.org/wiki/%E8%B1%8A%E6%B5%A6%E7%94%BA",
    "abstract": "豊浦町（とようらちょう）は、北海道胆振総合振興局の最も西に位置する町である。"
  },
  {
    "code": "01575",
    "name": "壮瞥町",
    "region": "胆振総合振興局",
    "coordinates": [
      140.885472,
      42.552556
    ],
    "wikipedia": "https://ja.wikipedia.org/wiki/%E5%A3%AE%E7%9E%A5%E7%94%BA",
    "abstract": "壮瞥町（そうべつちょう）は、北海道胆振総合振興局の西部に位置する。洞爺湖の南東岸に面し、有珠山・昭和新山という火山のある町である。雪合戦の国際大会が開催される町としても知られる。"
  },
  {
    "code": "01578",
    "name": "白老町",
    "region": "胆振総合振興局",
    "coordinates": [
      141.355861,
      42.551259
    ],
    "wikipedia": "https://ja.wikipedia.org/wiki/%E7%99%BD%E8%80%81%E7%94%BA",
    "abstract": "白老町（しらおいちょう）は、北海道中南部（道央地方）に位置し、胆振総合振興局に属する町。"
  },
  {
    "code": "01581",
    "name": "厚真町",
    "region": "胆振総合振興局",
    "coordinates": [
      141.877841,
      42.723566
    ],
    "wikipedia": "https://ja.wikipedia.org/wiki/%E5%8E%9A%E7%9C%9F%E7%94%BA",
    "abstract": "厚真町（あつまちょう）は、北海道胆振総合振興局管内勇払郡にある町。道央南部に位置する。"
  },
  {
    "code": "01584",
    "name": "洞爺湖町",
    "region": "胆振総合振興局",
    "coordinates": [
      140.764128,
      42.551223
    ],
    "wikipedia": "https://ja.wikipedia.org/wiki/%E6%B4%9E%E7%88%BA%E6%B9%96%E7%94%BA",
    "abstract": "洞爺湖町（とうやこちょう）は、北海道胆振総合振興局にある町。"
  },
  {
    "code": "01585",
    "name": "安平町",
    "region": "胆振総合振興局",
    "coordinates": [
      141.818047,
      42.762798
    ],
    "wikipedia": "https://ja.wikipedia.org/wiki/%E5%AE%89%E5%B9%B3%E7%94%BA",
    "abstract": "安平町（あびらちょう）は、北海道胆振総合振興局管内の勇払郡の町。"
  },
  {
    "code": "01586",
    "name": "むかわ町",
    "region": "胆振総合振興局",
    "coordinates": [
      141.926761,
      42.574741
    ],
    "wikipedia": "https://ja.wikipedia.org/wiki/%E3%82%80%E3%81%8B%E3%82%8F%E7%94%BA",
    "abstract": "むかわ町（むかわちょう）は、北海道胆振総合振興局東部に位置する勇払郡の町。"
  },
  {
    "code": "01601",
    "name": "日高町",
    "region": "日高振興局",
    "coordinates": [
      142.074359,
      42.480318
    ],
    "wikipedia": "https://ja.wikipedia.org/wiki/%E6%97%A5%E9%AB%98%E7%94%BA",
    "abstract": "日高町 自治体 \n* 日高町 (北海道) - 北海道沙流郡に所在。 \n* 日高町 (和歌山県) - 和歌山県日高郡に所在。廃止自治体 \n* 日高町 (兵庫県) - 兵庫県城崎郡に所在した。現・豊岡市。 \n* 日高町 (埼玉県) - 埼玉県入間郡に所在した。読みは「ひだかまち」。現・日高市。地名 \n* 日高町 - 茨城県日立市日高町。読みは「ひたかちょう」。町内にJR常磐線の小木津駅がある。 \n* 日高町 - 群馬県高崎市日高町。関越自動車道の前橋インターチェンジ付近に所在する。 \n* 日高町 - 兵庫県川西市の地名。町内に川西市立桜が丘小学校がある。 \n* 日高町 - 大分県日田市大字日高の地名。このページは地名の曖昧さ回避のためのページです。一つの地名が2か所以上の場所に用いられている場合の水先案内のために、同じ地名を持つ場所を一覧にしてあります。お探しの場所に一番近い記事を選んでください。このページへリンクしているページを見つけたら、リンクを適切な項目に張り替えてください。"
  },
  {
    "code": "01602",
    "name": "平取町",
    "region": "日高振興局",
    "coordinates": [
      142.128525,
      42.585098
    ],
    "wikipedia": "https://ja.wikipedia.org/wiki/%E5%B9%B3%E5%8F%96%E7%94%BA",
    "abstract": "平取町（びらとりちょう）は、北海道の日高振興局管内にある町。"
  },
  {
    "code": "01604",
    "name": "新冠町",
    "region": "日高振興局",
    "coordinates": [
      142.318315,
      42.362417
    ],
    "wikipedia": "https://ja.wikipedia.org/wiki/%E6%96%B0%E5%86%A0%E7%94%BA",
    "abstract": "新冠町（にいかっぷちょう）は、北海道の日高振興局中部にある町。日本有数の軽種馬産地として栄えている。近年はレコードと音楽による街づくりを進めている。町内にある「新冠レ・コード館」には、60万枚を超えるレコードが所蔵されている。 町名の由来は、アイヌ語の「ニカプ」（ニレの木の皮）から。"
  },
  {
    "code": "01607",
    "name": "浦河町",
    "region": "日高振興局",
    "coordinates": [
      142.768213,
      42.168355
    ],
    "wikipedia": "https://ja.wikipedia.org/wiki/%E6%B5%A6%E6%B2%B3%E7%94%BA",
    "abstract": "浦河町（うらかわちょう）は、北海道の日高振興局管内にある町。日高振興局の所在地である。"
  },
  {
    "code": "01608",
    "name": "様似町",
    "region": "日高振興局",
    "coordinates": [
      142.933797,
      42.127737
    ],
    "wikipedia": "https://ja.wikipedia.org/wiki/%E6%A7%98%E4%BC%BC%E7%94%BA",
    "abstract": "様似町（さまにちょう）は、北海道の日高振興局管内にある町である。様似郡に属する。 町名のサマニはアイヌ語起源で、語源は「サマムニ」または「サムンニ」（倒れ木）、エサマンペッ（カワウソの川）など諸説ある。 全域がアポイ岳ジオパークとして国際連合教育科学文化機関（ユネスコ）の世界ジオパークに認定されている。"
  },
  {
    "code": "01609",
    "name": "えりも町",
    "region": "日高振興局",
    "coordinates": [
      143.148348,
      42.016298
    ],
    "wikipedia": "https://ja.wikipedia.org/wiki/%E3%81%88%E3%82%8A%E3%82%82%E7%94%BA",
    "abstract": "えりも町（えりもちょう）は、北海道南部、日高振興局管内にある町。1町で幌泉郡をなしている。北海道主部における最南端である襟裳岬がある。 町名の由来は、アイヌ語で「エンルム」（岬の意）。 林野庁が1953年（昭和28年）以降、襟裳岬の治山事業を開始した。2001年（平成13年）に緑化の取り組みがNHK総合「プロジェクトX〜挑戦者たち〜」で放送された。"
  },
  {
    "code": "01610",
    "name": "新ひだか町",
    "region": "日高振興局",
    "coordinates": [
      142.368588,
      42.341276
    ],
    "wikipedia": "https://ja.wikipedia.org/wiki/%E6%96%B0%E3%81%B2%E3%81%A0%E3%81%8B%E7%94%BA",
    "abstract": "新ひだか町（しんひだかちょう）は、北海道日高振興局管内にある日高郡の町。"
  },
  {
    "code": "01631",
    "name": "音更町",
    "region": "十勝総合振興局",
    "coordinates": [
      143.197869,
      42.994115
    ],
    "wikipedia": "https://ja.wikipedia.org/wiki/%E9%9F%B3%E6%9B%B4%E7%94%BA",
    "abstract": "音更町（おとふけちょう）は、北海道十勝総合振興局にある町。北海道内の町村の中で最も人口が多い。"
  },
  {
    "code": "01632",
    "name": "士幌町",
    "region": "十勝総合振興局",
    "coordinates": [
      143.241344,
      43.168047
    ],
    "wikipedia": "https://ja.wikipedia.org/wiki/%E5%A3%AB%E5%B9%8C%E7%94%BA",
    "abstract": "士幌町（しほろちょう）は、北海道河東郡にある町。"
  },
  {
    "code": "01633",
    "name": "上士幌町",
    "region": "十勝総合振興局",
    "coordinates": [
      143.296243,
      43.232615
    ],
    "wikipedia": "https://ja.wikipedia.org/wiki/%E4%B8%8A%E5%A3%AB%E5%B9%8C%E7%94%BA",
    "abstract": "上士幌町（かみしほろ ちょう）は、北海道河東郡にある町。"
  },
  {
    "code": "01634",
    "name": "鹿追町",
    "region": "十勝総合振興局",
    "coordinates": [
      142.989028,
      43.098876
    ],
    "wikipedia": "https://ja.wikipedia.org/wiki/%E9%B9%BF%E8%BF%BD%E7%94%BA",
    "abstract": "鹿追町（しかおいちょう）は、北海道河東郡にある町。"
  },
  {
    "code": "01635",
    "name": "新得町",
    "region": "十勝総合振興局",
    "coordinates": [
      142.838822,
      43.079741
    ],
    "wikipedia": "https://ja.wikipedia.org/wiki/%E6%96%B0%E5%BE%97%E7%94%BA",
    "abstract": "新得町（しんとくちょう）は、北海道上川郡にある町。"
  },
  {
    "code": "01636",
    "name": "清水町",
    "region": "十勝総合振興局",
    "coordinates": [
      142.884568,
      43.011423
    ],
    "wikipedia": "https://ja.wikipedia.org/wiki/%E6%B8%85%E6%B0%B4%E7%94%BA",
    "abstract": "清水町（しみず-）"
  },
  {
    "code": "01637",
    "name": "芽室町",
    "region": "十勝総合振興局",
    "coordinates": [
      143.050807,
      42.91189
    ],
    "wikipedia": "https://ja.wikipedia.org/wiki/%E8%8A%BD%E5%AE%A4%E7%94%BA",
    "abstract": "芽室町（めむろちょう）は、北海道河西郡にある町。町名は、アイヌ語の「メム・オロ」（泉から流れている川）に由来している。"
  },
  {
    "code": "01638",
    "name": "中札内村",
    "region": "十勝総合振興局",
    "coordinates": [
      143.132443,
      42.697611
    ],
    "wikipedia": "https://ja.wikipedia.org/wiki/%E4%B8%AD%E6%9C%AD%E5%86%85%E6%9D%91",
    "abstract": "中札内村（なかさつないむら）は、北海道十勝総合振興局にある村。北海道内の村の中で最も人口が多い。"
  },
  {
    "code": "01639",
    "name": "更別村",
    "region": "十勝総合振興局",
    "coordinates": [
      143.187794,
      42.650415
    ],
    "wikipedia": "https://ja.wikipedia.org/wiki/%E6%9B%B4%E5%88%A5%E6%9D%91",
    "abstract": "更別村（さらべつむら）は、北海道十勝総合振興局管内にある村。十勝総合振興局の南部に位置する。 村名の由来は、アイヌ語の「サラペツ」（アシ・カヤが生い茂る地の意）より。"
  },
  {
    "code": "01641",
    "name": "大樹町",
    "region": "十勝総合振興局",
    "coordinates": [
      143.27891,
      42.497525
    ],
    "wikipedia": "https://ja.wikipedia.org/wiki/%E5%A4%A7%E6%A8%B9%E7%94%BA",
    "abstract": "大樹町（たいきちょう）は、北海道十勝総合振興局南部にある町である。 「宇宙のまちづくり」を標榜し、航空や宇宙分野での実験や飛行試験を積極的に誘致し、主に大樹町多目的航空公園でJAXAや大学などの研究機関が実験を行う。カントリーサインも滑走路を背景とした宇宙往還機らしきものとなっている。ミニバレー発祥の地。"
  },
  {
    "code": "01642",
    "name": "広尾町",
    "region": "十勝総合振興局",
    "coordinates": [
      143.311498,
      42.285841
    ],
    "wikipedia": "https://ja.wikipedia.org/wiki/%E5%BA%83%E5%B0%BE%E7%94%BA",
    "abstract": "広尾町（ひろおちょう）は、北海道十勝総合振興局南部にある町。 町名の由来はアイヌ語の「ピロロ」（陰になったところ）、「ピ・オロ」（石があるところ）、「ピルイ・ペツ」（砥石の川）、「ピラ・オロ」（崖のところ）など諸説ある。"
  },
  {
    "code": "01643",
    "name": "幕別町",
    "region": "十勝総合振興局",
    "coordinates": [
      143.356085,
      42.908198
    ],
    "wikipedia": "https://ja.wikipedia.org/wiki/%E5%B9%95%E5%88%A5%E7%94%BA",
    "abstract": "幕別町（まくべつちょう）は、北海道中川郡にある町。町名は、アイヌ語の「マクンベツ」（山際を流れる川）が転訛したものと言われている。"
  },
  {
    "code": "01644",
    "name": "池田町",
    "region": "十勝総合振興局",
    "coordinates": [
      143.448472,
      42.92898
    ],
    "wikipedia": "https://ja.wikipedia.org/wiki/%E6%B1%A0%E7%94%B0%E7%94%BA",
    "abstract": "池田町 読みは特記以外「いけだちょう」。 自治体名 \n* 池田町 (北海道) - 北海道 中川郡 に所在。 \n* 池田町 (福井県) - 福井県 今立郡 に所在。 \n* 池田町 (長野県) - 長野県 北安曇郡 に所在。（いけだまち） \n* 池田町 (岐阜県) - 岐阜県 揖斐郡 に所在。 \n* 池田町 (大阪府) - 大阪府 豊島郡・豊能郡 に所在。 → 池田市 \n* 池田町 (徳島県) - 徳島県 三好郡 に所在。現・三好市。 \n* 池田町 (香川県) - 香川県 小豆郡 に所在。現・小豆島町。 1985年7月、大阪府を除く上記の6町の代表が集まり、「全国池田町サミット」が初開催された。1986年4月に姉妹縁組し、1988年8月には池田市（大阪府）を加えた1市6町で「全国池田サミット」を開催し毎年交流を続けていたが、平成の大合併の余波で2006年にその活動に終止符を打つこととなった。 大字・町丁 \n* 池田町 (横須賀市) - 神奈川県 横須賀市 に所在。 \n* - 石川県 金沢市 に所在。（いけだまち） \n* - 岐阜県 岐阜市 に所在。（いけだまち） \n* - 岐阜県 関市 に所在。 \n* - 岐阜県 多治見市 に所在。 \n* 池田町 (名古屋市) - 愛知県 名古屋市 中区 に所在。 \n* 池田町 (瀬戸市) - 愛知県 瀬戸市 に所在。 \n* - 愛知県 半田市 に所在。 \n* - 愛知県 刈谷市 に所在。 \n* - 愛知県 豊田市 に所在。 \n* - 三重県 鈴鹿市 に所在。 \n* - 滋賀県 近江八幡市 に所在。（いけだまち） \n* - 滋賀県 東近江市 に所在。 \n* 池田町 (大阪市) - 大阪府 大阪市 北区 に所在。 \n* - 兵庫県 小野市 に所在。 \n* - 兵庫県 西宮市 に所在。 \n* - 奈良県 奈良市 に所在。 \n* - 香川県 高松市 に所在。 \n* - 長崎県 五島市 に所在。（いけだまち）"
  },
  {
    "code": "01645",
    "name": "豊頃町",
    "region": "十勝総合振興局",
    "coordinates": [
      143.5059,
      42.801023
    ],
    "wikipedia": "https://ja.wikipedia.org/wiki/%E8%B1%8A%E9%A0%83%E7%94%BA",
    "abstract": "豊頃町（とよころちょう）は、北海道十勝総合振興局管内の中川郡にある町である。十勝川の河口に位置し、十勝地方の開拓が十勝川を河口から遡上する形で進んだ歴史から十勝地方発祥の地とされ、大津地区と呼ばれる河口住居地の中央近くに碑がある。ハルニレの木が町のシンボルとなっている。"
  },
  {
    "code": "01646",
    "name": "本別町",
    "region": "十勝総合振興局",
    "coordinates": [
      143.610962,
      43.124615
    ],
    "wikipedia": "https://ja.wikipedia.org/wiki/%E6%9C%AC%E5%88%A5%E7%94%BA",
    "abstract": "本別町（ほんべつちょう）は、北海道十勝総合振興局管内の中川郡にある町。 町名の由来は、アイヌ語の「ポンペッ」（pon-pet＝小さい・川）から。"
  },
  {
    "code": "01647",
    "name": "足寄町",
    "region": "十勝総合振興局",
    "coordinates": [
      143.55393,
      43.244786
    ],
    "wikipedia": "https://ja.wikipedia.org/wiki/%E8%B6%B3%E5%AF%84%E7%94%BA",
    "abstract": "足寄町（あしょろちょう）は、北海道十勝総合振興局管内の足寄郡にある町。 約1,400 km2の面積を持ち、2005年（平成17年）1月までは、日本最大の面積を持つ市町村であった（ロシア連邦が実効支配している北方領土の択捉郡留別村を含めると2番目）。平成の大合併により、2014年（平成26年）以降は、岐阜県高山市、静岡県浜松市、栃木県日光市、北海道北見市及び静岡市に次いで第6位。また、留別村を除く道内では2006年（平成18年）3月19日まで、面積最大の市町村であり、現在も北見市に次ぐ道内2位の面積である。町としては、2018年（平成30年）10月31日現在でも日本一広い面積を持つ。"
  },
  {
    "code": "01648",
    "name": "陸別町",
    "region": "十勝総合振興局",
    "coordinates": [
      143.747305,
      43.468914
    ],
    "wikipedia": "https://ja.wikipedia.org/wiki/%E9%99%B8%E5%88%A5%E7%94%BA",
    "abstract": "陸別町（りくべつちょう）は、北海道十勝総合振興局管内の足寄郡にある町。"
  },
  {
    "code": "01649",
    "name": "浦幌町",
    "region": "十勝総合振興局",
    "coordinates": [
      143.658581,
      42.808947
    ],
    "wikipedia": "https://ja.wikipedia.org/wiki/%E6%B5%A6%E5%B9%8C%E7%94%BA",
    "abstract": "浦幌町（うらほろちょう）は、北海道南東部、十勝総合振興局管内にある町。一町で十勝郡をなす。"
  },
  {
    "code": "01661",
    "name": "釧路町",
    "region": "釧路総合振興局",
    "coordinates": [
      144.466081,
      42.996124
    ],
    "wikipedia": "https://ja.wikipedia.org/wiki/%E9%87%A7%E8%B7%AF%E7%94%BA",
    "abstract": "釧路町（くしろちょう）は、北海道釧路総合振興局にある町。"
  },
  {
    "code": "01662",
    "name": "厚岸町",
    "region": "釧路総合振興局",
    "coordinates": [
      144.847443,
      43.051951
    ],
    "wikipedia": "https://ja.wikipedia.org/wiki/%E5%8E%9A%E5%B2%B8%E7%94%BA",
    "abstract": "厚岸町（あっけしちょう）は、北海道釧路総合振興局にある町。"
  },
  {
    "code": "01663",
    "name": "浜中町",
    "region": "釧路総合振興局",
    "coordinates": [
      145.129391,
      43.077087
    ],
    "wikipedia": "https://ja.wikipedia.org/wiki/%E6%B5%9C%E4%B8%AD%E7%94%BA",
    "abstract": "浜中町（はまなかちょう）は、北海道釧路総合振興局管内の厚岸郡にある町。 町名の由来は、アイヌ語「オタノシケ」（砂浜の真ん中）を意訳したもの。この砂浜は、現在の榊町から暮帰別にかけての海岸をあらわす。 幾度も津波被害にあったことから、海岸沿いの陸地に総延長17キロメートルにも及ぶ防潮堤が建設され、全国初の津波防災ステーションがつくられた。街が城壁に囲まれたような光景が見られる。"
  },
  {
    "code": "01664",
    "name": "標茶町",
    "region": "釧路総合振興局",
    "coordinates": [
      144.600665,
      43.303337
    ],
    "wikipedia": "https://ja.wikipedia.org/wiki/%E6%A8%99%E8%8C%B6%E7%94%BA",
    "abstract": "標茶町（しべちゃちょう）は、北海道釧路総合振興局管内の川上郡にある町。主に富山県、長野県からの満蒙開拓団（弥栄開拓団）の引揚者が戦後多数移住した。 町名の由来はアイヌ語の「シペッチャ」（大きな川のほとり）から。"
  },
  {
    "code": "01665",
    "name": "弟子屈町",
    "region": "釧路総合振興局",
    "coordinates": [
      144.459223,
      43.485352
    ],
    "wikipedia": "https://ja.wikipedia.org/wiki/%E5%BC%9F%E5%AD%90%E5%B1%88%E7%94%BA",
    "abstract": "弟子屈町（てしかがちょう）は、北海道釧路総合振興局管内の川上郡にある町である。"
  },
  {
    "code": "01667",
    "name": "鶴居村",
    "region": "釧路総合振興局",
    "coordinates": [
      144.321165,
      43.23016
    ],
    "wikipedia": "https://ja.wikipedia.org/wiki/%E9%B6%B4%E5%B1%85%E6%9D%91",
    "abstract": "鶴居村（つるいむら）は、北海道釧路総合振興局管内の阿寒郡にある村。現在、釧路総合振興局では唯一の村となっている。総務省に過疎地域に指定された自治体ではあるが、農業従事者一人あたりの平均年収額は全国一位であり、一人あたりの平均所得が日本一高い村である。釧路空港に近く、釧路湿原国立公園を眼下に見ることができる、自然環境が豊富な下幌呂地区に分譲住宅地を展開している。ここでは、一世帯当たりの敷地面積を200坪前後にした空間が整備され、釧路湿原などの広大な自然環境と手厚い福祉・医療事業の施策による住みやすさから、全国各地から子育て世代などの移住者が増加している。令和2年国勢調査の速報集計結果では釧路管内で唯一、人口が増加している。 村名の由来は、特別天然記念物タンチョウの生息・繁殖地であることに因む。"
  },
  {
    "code": "01668",
    "name": "白糠町",
    "region": "釧路総合振興局",
    "coordinates": [
      144.071805,
      42.956161
    ],
    "wikipedia": "https://ja.wikipedia.org/wiki/%E7%99%BD%E7%B3%A0%E7%94%BA",
    "abstract": "白糠町（しらぬかちょう）は、北海道釧路総合振興局管内の白糠郡にある町。 町名の由来は、アイヌ語の「シラㇻカ（sirar-ka＝磯・上）」、「シラリカ（sirar-ika＝磯・越える／満ち潮のこと）」などが以前より知られているが、確定していない。"
  },
  {
    "code": "01691",
    "name": "別海町",
    "region": "根室振興局",
    "coordinates": [
      145.117341,
      43.39399
    ],
    "wikipedia": "https://ja.wikipedia.org/wiki/%E5%88%A5%E6%B5%B7%E7%94%BA",
    "abstract": "別海町（べつかいちょう）は、北海道根室振興局管内の野付郡にある町。"
  },
  {
    "code": "01692",
    "name": "中標津町",
    "region": "根室振興局",
    "coordinates": [
      144.971504,
      43.555191
    ],
    "wikipedia": "https://ja.wikipedia.org/wiki/%E4%B8%AD%E6%A8%99%E6%B4%A5%E7%94%BA",
    "abstract": "中標津町（なかしべつちょう）は、北海道標津郡にある町。北海道東部（道東地域）に位置し、根室振興局が管轄する。 地名は、標津川の中流域にあることに由来する。 「標津川#川名の由来」も参照"
  },
  {
    "code": "01693",
    "name": "標津町",
    "region": "根室振興局",
    "coordinates": [
      145.131325,
      43.661309
    ],
    "wikipedia": "https://ja.wikipedia.org/wiki/%E6%A8%99%E6%B4%A5%E7%94%BA",
    "abstract": "標津町（しべつちょう）は、北海道東部、根室振興局管内標津郡にある町。日本有数の鮭の産地として知られる。 上川総合振興局に同名の読みの士別市があり、テレビ・ラジオ放送では混同を防ぐために、標津町には振興局名を冠して「根室標津」、士別市を「サムライ士別」などと呼ぶことがある。"
  },
  {
    "code": "01694",
    "name": "羅臼町",
    "region": "根室振興局",
    "coordinates": [
      145.189532,
      44.021953
    ],
    "wikipedia": "https://ja.wikipedia.org/wiki/%E7%BE%85%E8%87%BC%E7%94%BA",
    "abstract": "羅臼町（らうすちょう）は、北海道根室振興局にある町。"
  },
  {
    "code": "01700",
    "name": "蘂取村",
    "region": "根室振興局",
    "coordinates": [
      148.772557,
      45.556628
    ],
    "wikipedia": "https://ja.wikipedia.org/wiki/%E8%98%82%E5%8F%96%E6%9D%91",
    "abstract": "蘂取村（しべとろむら）は、北海道根室振興局蘂取郡に属する村。同じく北方領土に存在する留別村、紗那村、留夜別村に次いで日本で4番目に大きな面積を持つ村であり、日本最北端の村でもある。ただし、2021年現在蘂取村を含む北方領土に日本の施政権は及んでおらず、法令上のみ存在する村となっている。 村名の由来は、アイヌ語のシ・ペッ・オロ（大きい川のところ）から。 当該地域の領有権に関する詳細は千島列島及び北方領土問題の項目を、現状に関しては現在の択捉島の項目を参照のこと。"
  },
  {
    "code": "01695",
    "name": "色丹村",
    "region": "根室振興局",
    "coordinates": [
      146.738866,
      43.800739
    ],
    "wikipedia": "https://ja.wikipedia.org/wiki/%E8%89%B2%E4%B8%B9%E6%9D%91",
    "abstract": "色丹村（しこたんむら，ロシア語: Шикотан）は、北海道色丹郡の村。村名は始め斜古丹（しゃこたん）といい、アイヌ語(サクイベ・コタン=夏ノ・場所、極マル・所)に由来する。 2021年現在色丹村を含む北方領土に日本の施政権は及んでおらず、法令上のみ存在する村となっている。 当該地域の領有権に関する詳細は千島列島及び北方領土問題の項目を、現状に関してはサハリン州#南クリル管区の項目を参照のこと。また、現在のロシア領としての自治体はマロクリリスク、クラボザヴォーツカエクを参照のこと。"
  },
  {
    "code": "01696",
    "name": "泊村:根室",
    "region": "根室振興局",
    "coordinates": [
      145.623708,
      43.909815
    ],
    "wikipedia": "https://ja.wikipedia.org/wiki/%E6%B3%8A%E6%9D%91_%28%E5%8C%97%E6%B5%B7%E9%81%93%E6%A0%B9%E5%AE%A4%E6%8C%AF%E8%88%88%E5%B1%80%29",
    "abstract": "泊村（とまりむら）は、北海道根室振興局国後郡の国後島の西半分を占める村。2021年現在泊村を含む北方領土に日本の施政権は及んでおらず、法令上のみ存在する村となっている。 当該地域の領有権に関する詳細は千島列島及び北方領土問題の項目を、現状に関してはサハリン州#南クリル管区の項目を参照のこと。"
  },
  {
    "code": "01697",
    "name": "留夜別村",
    "region": "根室振興局",
    "coordinates": [
      146.12744,
      44.319813
    ],
    "wikipedia": "https://ja.wikipedia.org/wiki/%E7%95%99%E5%A4%9C%E5%88%A5%E6%9D%91",
    "abstract": "留夜別村（るよべつむら、るやべつむら）は、北海道根室振興局国後郡に属する村。国後島の東半分を占める。択捉島の留別村、紗那村に次ぎ、日本国内で3番目に大きな面積を持つ村である。ただし、2021年現在留夜別村を含む北方領土に日本の施政権は及んでおらず、法令上のみ存在する村となっている。 現在は村内全ての集落が廃村となり、ロシアが設置した国立公園の管理官以外は無人の地帯になっている。 当該地域の領有権に関する詳細は千島列島及び北方領土問題の項目を、現状に関してはサハリン州#南クリル管区の項目を参照のこと。"
  },
  {
    "code": "01698",
    "name": "留別村",
    "region": "根室振興局",
    "coordinates": [
      147.407788,
      44.83071
    ],
    "wikipedia": "https://ja.wikipedia.org/wiki/%E7%95%99%E5%88%A5%E6%9D%91",
    "abstract": "留別村（るべつむら）は、北海道根室振興局択捉郡に属する村。日本で最も面積の広い村である。ただし、2021年現在留別村を含む北方領土に日本の施政権は及んでおらず、法令上のみ存在する村となっている。 村名の由来は、アイヌ語のル・ペッ（道・川）から。 当該地域の領有権に関する詳細は千島列島及び北方領土問題の項目を、現状に関してはサハリン州#クリル管区、択捉島#ソ連崩壊後の択捉島の項目を参照のこと。"
  },
  {
    "code": "01699",
    "name": "紗那村",
    "region": "根室振興局",
    "coordinates": [
      148.000166,
      45.199148
    ],
    "wikipedia": "https://ja.wikipedia.org/wiki/%E7%B4%97%E9%82%A3%E6%9D%91",
    "abstract": "紗那村（しゃなむら）は、北海道根室振興局紗那郡に属する村。同じ択捉島内の留別村に次ぎ、日本国内で2番目に大きな面積を持つ村である。ただし、2021年現在紗那村を含む北方領土に日本の施政権は及んでおらず、法令上のみ存在する村となっている。 村名の由来は、アイヌ語のサン・ナイ（下る・沢）から。 当該地域の領有権に関する詳細は千島列島及び北方領土問題の項目を、現状に関してはサハリン州#クリル管区、択捉島#ソ連崩壊後の択捉島の項目を参照のこと。"
  }
]